,City,Lat,Lng,Max Temp,Humidity,Cloudiness,Wind Speed,Country,Date
0,Nikolskoye,59.7035,30.7861,287.09,71,67,1.07,RU,1628041600
1,Mataura,-46.1927,168.8643,275.08,91,100,1.34,NZ,1628107190
2,Puerto Ayora,-0.7393,-90.3518,301.13,75,17,3.13,EC,1628078693
3,São João da Barra,-21.6403,-41.0511,297.2,65,7,6.77,BR,1628068478
4,Meulaboh,4.1363,96.1285,297.63,87,100,1.77,ID,1628119976
5,Cape Town,-33.9258,18.4232,288.64,88,20,1.79,ZA,1628055370
6,Gigmoto,13.7796,124.39,301.07,82,97,6.34,PH,1628112459
7,Saint Paul Harbor,57.79,-152.4072,286.88,77,20,2.06,US,1628086285
8,Woodward,36.4337,-99.3904,304.78,37,1,2.06,US,1628077597
9,Avarua,-21.2078,-159.775,297.18,60,47,3.09,CK,1628096925
10,Calabozo,8.9242,-67.4293,299.96,80,51,2.6,VE,1628072468
11,Hyderabad,17.3753,78.4744,298.88,64,40,3.09,IN,1628123191
12,Saint-Philippe,-21.3585,55.7679,291.92,76,97,6.96,RE,1628045226
13,Kavieng,-2.5744,150.7967,300.47,76,24,1.62,PG,1628107350
14,Saskylakh,71.9167,114.0833,283.0,52,99,3.13,RU,1628096945
15,Leer,8.3018,30.1418,295.29,95,100,1.42,SS,1628049097
16,Ushuaia,-54.8,-68.3,285.96,44,75,7.2,AR,1628079375
17,Jamestown,42.097,-79.2353,299.77,49,40,1.34,US,1628072006
18,Castro,-24.7911,-50.0119,287.92,63,89,3.28,BR,1628070901
19,Garoowe,8.4054,48.4845,302.63,40,30,10.8,SO,1628044687
20,Deer Lake,49.1667,-57.4316,293.07,52,40,5.66,CA,1628065585
21,Saint-Augustin,51.226,-58.6502,295.13,45,13,6.14,CA,1628065457
22,Menongue,-14.6585,17.691,288.05,31,0,1.84,AO,1628053816
23,Alenquer,-1.9417,-54.7383,304.34,41,4,1.57,BR,1628070235
24,Hermanus,-34.4187,19.2345,286.93,92,36,2.55,ZA,1628055228
25,Río Gallegos,-51.6226,-69.2181,291.18,20,0,8.75,AR,1628078911
26,Alta Floresta,-9.8756,-56.0861,309.05,24,0,3.09,BR,1628071151
27,Omboué,-1.5746,9.2618,297.34,84,6,4.31,GA,1628054849
28,Yellowknife,62.456,-114.3525,287.77,54,90,2.06,CA,1628075364
29,Rikitea,-23.1203,-134.9692,295.5,70,13,7.39,PF,1628091136
30,Lárdos,36.0942,28.0157,309.05,42,0,5.46,GR,1628047043
31,Moss Point,30.4116,-88.5345,305.57,63,75,4.12,US,1628075665
32,Upernavik,72.7868,-56.1549,280.74,75,8,1.93,GL,0
33,Paragominas,-2.9667,-47.4833,305.42,39,100,0.67,BR,1628068570
34,Atuona,-9.8,-139.0333,298.67,67,96,4.91,PF,1628091048
35,Severo-Kuril'sk,50.6789,156.125,284.9,77,99,5.7,RU,1628100463
36,Ponta do Sol,32.6667,-17.1,297.99,72,36,0.56,PT,1628058271
37,Punta Arenas,-53.15,-70.9167,287.21,51,0,9.26,CL,1628079633
38,Aklavik,68.2191,-135.0107,291.55,52,20,3.6,CA,1628076580
39,Thinadhoo,0.5333,72.9333,300.49,77,97,1.41,MV,1628125808
40,Lavrentiya,65.5833,-171.0,288.24,70,16,5.8,RU,1628173912
41,Warri,5.5167,5.75,297.71,89,100,1.87,NG,1628055163
42,Kargasok,59.0556,80.8572,287.46,87,88,2.91,RU,1628116332
43,Tall Kayf,37.0833,41.0667,307.4,16,8,0.95,TR,1628043788
44,Riyadh,24.6877,46.7219,308.23,9,7,3.8,SA,1628043753
45,Bredasdorp,-34.5322,20.0403,286.77,88,19,1.03,ZA,1628055047
46,Chumikan,54.7183,135.315,284.32,95,100,3.57,RU,1628104530
47,Maneromango,-7.1988,38.7848,293.01,85,61,1.67,TZ,1628048184
48,Nioro,13.35,-15.75,299.33,87,100,3.8,GM,1628059719
49,Noumea,-22.2763,166.4572,292.59,99,38,2.79,NC,1628105116
50,Bikaner,28.0167,73.3,304.94,56,61,3.27,IN,1628123485
51,Champasak,14.75,106.0,296.35,99,100,0.6,LA,1628116796
52,Port Alfred,-33.5906,26.891,290.02,88,73,1.98,ZA,1628053303
53,Saldanha,-33.0117,17.9442,285.18,91,0,3.9,ZA,1628055388
54,Te Anau,-45.4167,167.7167,275.68,91,100,0.73,NZ,1628107347
55,New Norfolk,-42.7826,147.0587,281.99,72,100,0.45,AU,1628111923
56,Nhulunbuy,-12.2333,136.7667,297.49,60,38,6.69,AU,1628111436
57,Vaini,-21.2,-175.2,288.24,94,20,1.54,TO,1628186992
58,Torbay,47.6666,-52.7314,296.08,62,75,13.38,CA,1628064737
59,Tiksi,71.6872,128.8694,278.55,84,0,2.96,RU,1628094250
60,Port Elizabeth,-33.918,25.5701,289.32,88,75,2.06,ZA,1628053655
61,Umba,66.6871,34.3429,282.49,82,100,7.95,RU,1628037111
62,Vila Velha,-20.3297,-40.2925,298.13,63,40,7.72,BR,1628068186
63,Hilo,19.7297,-155.09,298.59,84,90,3.09,US,1628092643
64,Bonthe,7.5264,-12.505,298.85,82,93,3.7,SL,1628059392
65,San Patricio,28.017,-97.5169,307.55,58,100,3.25,US,1628078064
66,Butaritari,3.0707,172.7902,301.08,66,96,3.94,KI,1628101657
67,Praia,14.9215,-23.5087,300.45,83,75,2.57,CV,1628061455
68,Otaru,43.1894,141.0022,297.13,89,100,2.19,JP,1628105412
69,Hobart,-42.8794,147.3294,282.18,72,40,0.45,AU,1628111871
70,Fayaoué,-20.65,166.5333,294.87,70,55,2.71,NC,1628104961
71,Albany,42.6001,-73.9662,299.71,55,100,1.57,US,1628070667
72,Rosetta,31.4044,30.4164,303.05,63,0,3.19,EG,1628046999
73,Yong’an,39.6957,113.6871,291.04,67,26,1.04,CN,1628112466
74,Puerto Escondido,15.85,-97.0667,302.61,70,40,4.12,MX,1628079037
75,Portland,45.5234,-122.6762,305.87,50,1,1.79,US,1628081909
76,Yerbogachën,61.2767,108.0108,287.54,79,90,2.37,RU,1628108971
77,Karratha,-20.7377,116.8463,293.44,25,5,9.48,AU,1628116889
78,Zhangye,38.9342,100.4517,294.5,24,3,2.28,CN,1628115744
79,Bilma,18.6853,12.9164,309.16,26,6,4.63,NE,1628052401
80,Pellérd,46.0344,18.154,297.62,60,0,2.57,HU,1628047996
81,Omsukchan,62.5333,155.8,274.2,98,100,2.2,RU,1628096934
82,Bambous Virieux,-20.3428,57.7575,294.29,68,75,7.2,MU,1628044663
83,Conde,-7.2597,-34.9075,296.85,88,75,5.14,BR,1628065872
84,Srednekolymsk,67.45,153.6833,276.62,93,100,3.46,RU,1628094434
85,Barrow,71.2906,-156.7887,284.16,82,1,2.57,US,1628077383
86,Kaitangata,-46.2817,169.8464,281.44,63,100,4.73,NZ,1628106969
87,Mandalgovi,45.7625,106.2708,285.85,70,0,3.95,MN,1628113349
88,Bundaberg,-24.85,152.35,284.38,60,0,2.68,AU,1628108722
89,Talcahuano,-36.7167,-73.1167,284.97,87,90,7.31,CL,1628077634
90,Kapaa,22.0752,-159.319,301.33,76,75,1.79,US,1628093455
91,Ancud,-41.8697,-73.8203,289.39,80,100,3.28,CL,1628078438
92,Half Moon Bay,37.4636,-122.4286,301.8,67,20,3.6,US,1628083003
93,Belaya Gora,68.5333,146.4167,278.69,76,100,4.95,RU,1628095197
94,Hong Kong,22.2855,114.1577,301.18,93,100,0.45,HK,1628114207
95,Bluff,-46.6,168.3333,275.26,76,100,2.57,NZ,1628107381
96,Qaanaaq,77.484,-69.3632,280.5,68,12,1.22,GL,0
97,Chokurdakh,70.6333,147.9167,278.68,72,88,6.08,RU,1628092104
98,Krasne,49.9145,24.6134,289.79,89,81,1.66,UA,1628045726
99,Ransang,8.9603,117.5828,300.36,81,39,4.16,PH,1628114466
100,Nantucket,41.2835,-70.0995,293.13,89,100,1.38,US,1628069928
101,Lokosovo,61.1333,74.8167,288.46,92,97,1.76,RU,1628117011
102,Klaksvík,62.2266,-6.589,285.66,95,94,3.15,FO,1628049556
103,Terney,45.0503,136.6092,294.21,91,100,2.86,RU,1628106178
104,Kieta,-6.2167,155.6333,298.59,85,25,2.6,PG,1628106458
105,Port Lincoln,-34.7333,135.8667,284.45,85,6,4.05,AU,1628113634
106,George Town,5.4112,100.3354,300.87,87,20,0.45,MY,1628118872
107,Hamilton,39.1834,-84.5333,301.77,46,75,0.45,US,1628073682
108,Lithgow,-33.4833,150.15,278.97,85,99,6.17,AU,1628110075
109,São Filipe,14.8961,-24.4956,298.47,88,100,1.81,CV,1628061694
110,Bengkulu,-3.8004,102.2655,297.39,90,100,2.51,ID,1628119087
111,Kahului,20.8947,-156.47,300.84,71,20,7.72,US,1628092874
112,Marabu,4.4148,114.0089,299.23,89,20,1.03,MY,1628115664
113,Zalesovo,53.9939,84.7431,286.77,95,6,0.21,RU,1628116865
114,Talnakh,69.4865,88.3972,291.64,63,9,1.49,RU,1628108122
115,Busselton,-33.65,115.3333,282.64,89,1,2.47,AU,1628118444
116,Lebu,-37.6167,-73.65,286.73,81,99,7.72,CL,1628077866
117,Xining,36.6167,101.7667,285.77,77,84,1.44,CN,1628115719
118,Sharjah city,25.3573,55.4033,309.14,55,0,1.03,AE,1628041606
119,Cloquet,46.7216,-92.4594,303.08,43,1,5.14,US,1628074448
120,Río Cuarto,-33.1307,-64.3499,295.02,18,0,11.32,AR,1628075140
121,Olafsvik,64.8945,-23.7142,285.56,86,93,1.91,IS,1628052286
122,Saint George,37.1041,-113.5841,312.41,15,1,1.79,US,1628080923
123,Homer,59.6425,-151.5483,290.97,84,1,2.06,US,1628085453
124,Zhoucun,36.8167,117.8167,298.85,82,74,1.82,CN,1628111840
125,Chui,-33.6971,-53.4616,286.09,82,61,3.05,UY,1628072588
126,Leningradskiy,69.3833,178.4167,278.15,90,98,1.46,RU,1628086552
127,Moree,-29.4667,149.85,277.16,93,3,2.57,AU,1628109746
128,Gūdūr,14.1333,79.85,303.87,51,100,7.42,IN,1628123122
129,Cidreira,-30.1811,-50.2056,289.4,90,99,3.93,BR,1628071449
130,Hofn,64.2539,-15.2082,285.16,94,40,2.06,IS,1628050610
131,Sinnamary,5.3833,-52.95,301.01,77,71,4.45,GF,1628069262
132,Penalva,-3.2942,-45.1736,305.14,42,90,0.69,BR,1628068040
133,Carnarvon,-24.8667,113.6333,284.19,39,0,5.14,AU,1628118012
134,Khani,41.9563,42.9566,293.91,94,79,0.78,GE,1628042679
135,Faizpur,21.1667,75.85,299.09,81,100,5.26,IN,1628123502
136,Usinsk,65.9939,57.5281,291.71,86,99,2.1,RU,1628032033
137,Northam,51.0333,-4.2167,290.59,85,100,2.76,GB,1628052420
138,Hasaki,35.7333,140.8333,296.37,89,0,1.63,JP,1628106443
139,Tutóia,-2.7619,-42.2744,303.14,73,80,3.22,BR,1628067305
140,Jizan,17.3333,42.6667,306.67,65,84,2.34,SA,1628045373
141,Ribeira Grande,38.5167,-28.7,299.37,69,20,3.09,PT,1628060360
142,Abhā,18.2164,42.5053,294.05,83,20,5.14,SA,1628045337
143,Kangaatsiaq,68.3065,-53.4641,279.65,88,28,3.24,GL,1628056857
144,Clyde River,70.4692,-68.5914,276.28,93,90,4.63,CA,1628057753
145,Alofi,-19.0595,-169.9187,291.09,100,100,1.03,NU,1628099181
146,Banjar,-8.19,114.9675,299.07,91,30,1.66,ID,1628116363
147,Isangel,-19.55,169.2667,290.21,88,52,2.57,VU,1628104215
148,Lüderitz,-26.6481,15.1594,286.43,84,4,2.01,NA,1628055434
149,Crateús,-5.1783,-40.6775,306.44,24,46,2.84,BR,1628067101
150,Yulara,-25.2406,130.9889,277.06,60,0,2.57,AU,1628113881
151,Sitka,57.0531,-135.33,290.09,82,90,2.06,US,1628082407
152,Gambēla,8.25,34.5833,295.21,89,100,1.7,ET,1628048035
153,East London,-33.0153,27.9116,291.0,86,69,2.44,ZA,1628052998
154,Ostrovnoy,68.0531,39.5131,283.4,91,99,6.75,RU,1628034710
155,Jumla,29.2747,82.1838,290.55,95,97,0.8,NP,1628121228
156,Dunedin,-45.8742,170.5036,280.82,73,100,7.15,NZ,1628106748
157,Uusikaupunki,60.8004,21.4084,284.44,59,6,2.59,FI,1628043433
158,Bethel,41.3712,-73.414,297.62,70,1,2.06,US,1628070712
159,Los Llanos de Aridane,28.6585,-17.9182,294.01,86,20,7.72,ES,1628058889
160,Katobu,-4.9408,122.5276,296.18,93,100,1.53,ID,1628114308
161,Ekimchan,53.0667,132.9667,285.87,99,97,1.4,RU,1628105501
162,Ereymentau,51.6199,73.1033,289.13,68,13,1.57,KZ,1628120210
163,Øksfjord,70.2396,22.3479,284.19,95,98,1.94,NO,1628036189
164,Payo,-3.7508,103.6372,295.26,98,98,0.99,ID,1628118754
165,Aden,12.7794,45.0367,301.9,82,21,2.86,YE,1628045174
166,Muromtsevo,56.3724,75.2418,286.88,97,94,2.47,RU,1628118519
167,Cavalcante,-13.7975,-47.4583,300.72,24,6,3.51,BR,1628069381
168,Ṭikāpur,28.5,81.1333,301.5,90,90,2.1,NP,1628121557
169,Hithadhoo,-0.6,73.0833,300.74,78,100,3.41,MV,1628125855
170,Horsham,51.064,-0.3272,293.07,46,0,2.57,GB,1628051479
171,Lao Cai,22.4833,103.95,299.85,76,63,1.12,VN,1628116641
172,Provideniya,64.3833,-173.3,288.21,63,0,11.0,RU,1628175161
173,Sobolevo,54.4299,31.8996,286.9,82,71,1.82,RU,1628042948
174,Comodoro Rivadavia,-45.8667,-67.5,293.07,19,0,2.06,AR,1628077495
175,Cassilândia,-19.1133,-51.7342,297.44,23,100,1.96,BR,1628070831
176,Khatanga,71.9667,102.5,289.64,50,92,5.37,RU,1628099524
177,Adelaide,-34.9333,138.6,284.98,91,20,0.45,AU,1628113000
178,Cockburn Town,21.4612,-71.1419,303.13,66,40,5.14,TC,1628072340
179,Dikson,73.5069,80.5464,279.82,92,9,1.04,RU,0
180,Téra,14.0078,0.7531,307.82,39,47,6.33,NE,1628055705
181,Bertoua,4.5833,13.6833,294.28,87,32,1.04,CM,1628053329
182,Guerrero Negro,27.9769,-114.0611,301.64,51,11,5.57,MX,1628082040
183,Beringovskiy,63.05,179.3167,282.55,91,100,10.47,RU,1628091034
184,Yārāda,17.65,83.2667,303.33,70,75,3.09,IN,1628122018
185,Ilulissat,69.2167,-51.1,284.16,58,1,2.06,GL,1628055306
186,Buraidah,26.326,43.975,309.4,10,31,5.41,SA,1628044258
187,Iquitos,-3.7481,-73.2472,304.17,45,20,3.09,PE,1628074811
188,San Cristobal,7.7669,-72.225,300.25,55,99,3.22,VE,1628073708
189,Guthrie,35.8789,-97.4253,305.67,49,86,2.06,US,1628077192
190,Pontal do Paraná,-25.6533,-48.5128,293.0,48,40,6.17,BR,1628070618
191,Chiang Klang,19.2938,100.8617,296.7,99,100,0.89,TH,1628117657
192,Labuhan,-6.8844,112.2051,297.89,86,54,2.56,ID,1628116929
193,Ixtapa,20.7,-105.2,304.94,66,20,2.57,MX,1628080583
194,Mizdah,31.4451,12.9801,306.18,12,0,4.06,LY,1628051181
195,Tuatapere,-46.1333,167.6833,275.27,83,100,1.85,NZ,1628107464
196,Nanortalik,60.1432,-45.2371,280.91,93,100,0.93,GL,1628059711
197,Caravelas,-17.7125,-39.2481,293.38,86,98,5.09,BR,1628067721
198,Otavi,-19.65,17.3333,291.45,27,0,1.55,NA,1628054304
199,Poum,-20.2333,164.0167,294.44,73,100,2.89,NC,1628105530
200,Mogwase,-25.185,27.2665,288.61,34,0,1.53,ZA,1628052397
201,Rāwah,34.4816,41.9093,310.16,15,4,3.87,IQ,1628043897
202,Mar del Plata,-38.0023,-57.5575,290.16,27,0,0.45,AR,1628074052
203,Cap-aux-Meules,47.3821,-61.8597,292.18,63,40,2.57,CA,1628066981
204,Baykit,61.67,96.37,289.19,78,95,1.59,RU,1628111606
205,Mahébourg,-20.4081,57.7,294.31,68,75,7.2,MU,1628044683
206,Angoche,-16.2325,39.9086,294.92,78,4,2.33,MZ,1628048610
207,Emirdağ,39.0197,31.15,296.79,37,0,0.47,TR,1628045921
208,Marystown,47.1666,-55.1483,291.72,73,61,8.28,CA,1628065407
209,Palmer,42.1584,-72.3287,298.01,62,90,1.34,US,1628070338
210,Joshīmath,30.5667,79.5667,294.36,89,70,0.36,IN,1628121724
211,Manzanillo,20.3433,-77.1167,304.09,60,86,2.85,CU,1628073872
212,Stephanskirchen,47.8595,12.1528,288.94,97,100,0.87,DE,1628049115
213,Kokoda,-8.8785,147.7407,296.09,97,100,0.19,PG,1628108550
214,Taksimo,56.3444,114.8794,285.21,84,59,0.72,RU,1628109001
215,Maxixe,-23.8597,35.3472,290.72,71,0,2.05,MZ,1628050341
216,Candolim,15.5181,73.7626,299.67,87,95,7.99,IN,1628124473
217,Bathsheba,13.2167,-59.5167,303.49,66,40,7.2,BB,1628070235
218,Asproválta,40.7167,23.7,306.22,79,8,0.89,GR,1628047481
219,Bakchar,57.0186,82.0711,286.42,97,60,1.55,RU,1628116690
220,‘Āhuimanu,21.4447,-157.8378,301.99,61,75,6.69,US,1628093154
221,Tasiilaq,65.6145,-37.6368,285.24,76,93,0.27,GL,1628055186
222,Nemuro,43.3236,145.575,292.35,98,96,1.2,JP,1628104294
223,Salalah,17.0151,54.0924,299.2,94,75,2.57,OM,1628042656
224,Arrondissement du Havre,49.5833,0.3333,290.39,82,75,2.57,FR,1628051626
225,Santa Cruz de la Sierra,-17.8,-63.1667,301.85,26,75,6.17,BO,1628073467
226,Tomatlán,19.9333,-105.25,305.56,62,59,3.87,MX,1628080661
227,Lamballe,48.4676,-2.5144,290.21,85,64,1.6,FR,1628052526
228,Kalmunai,7.4167,81.8167,299.77,73,89,2.42,LK,1628123167
229,Katsuura,35.1333,140.3,298.23,89,15,2.59,JP,1628106641
230,La Ronge,55.1001,-105.2842,294.29,68,90,2.06,CA,1628075738
231,Kupino,54.3663,77.2981,287.59,94,3,3.13,RU,1628118561
232,Chiredzi,-21.05,31.6667,292.08,54,80,1.95,ZW,1628050982
233,Seoul,37.5683,126.9778,299.88,86,0,1.54,KR,1628109548
234,Tuktoyaktuk,69.4541,-133.0374,288.15,55,20,3.09,CA,1628074765
235,Tateyama,34.9833,139.8667,298.18,87,7,3.02,JP,1628106763
236,Geraldton,-28.7667,114.6,281.38,81,0,4.63,AU,1628118135
237,Haines Junction,60.7522,-137.5108,293.12,49,99,1.03,CA,1628081659
238,Dzilam González,21.2833,-88.9333,307.2,49,19,4.81,MX,1628076627
239,Bara,10.3744,10.7288,299.41,74,82,2.89,NG,1628053597
240,Brainerd,46.358,-94.2008,300.16,39,1,6.17,US,1628074929
241,Port Hardy,50.6996,-127.4199,292.25,82,20,2.06,CA,1628082090
242,Smithers,54.7804,-127.1743,295.33,60,75,2.57,CA,1628081083
243,Faanui,-16.4833,-151.75,299.54,72,48,7.37,PF,1628094615
244,Bac Lieu,9.285,105.7244,299.81,83,100,5.71,VN,1628117287
245,Aksarka,66.5606,67.7975,289.27,79,16,3.07,RU,1628115795
246,Souillac,-20.5167,57.5167,294.36,68,75,7.2,MU,1628044736
247,Māngrol,21.1167,70.1167,300.43,85,100,8.57,IN,1628124882
248,Sørland,67.667,12.6934,285.19,90,100,8.93,NO,1628041521
249,Bon Air,37.5249,-77.5578,301.77,59,40,0.45,US,1628072219
250,Leshukonskoye,64.8989,45.7622,286.35,64,83,2.99,RU,1628035570
251,Dingle,10.9995,122.6711,298.62,87,72,3.83,PH,1628113089
252,Jinka,5.65,36.65,295.22,48,99,1.95,ET,1628047737
253,Kysyl-Syr,63.8986,122.7617,287.85,59,20,1.34,RU,1628104207
254,Barabai,-2.5833,115.3833,296.39,90,73,0.83,ID,1628115849
255,Nome,64.5011,-165.4064,298.19,51,1,5.14,US,1628086601
256,Pevek,69.7008,170.3133,276.83,96,100,4.64,RU,1628088106
257,Sioux Lookout,50.1001,-91.917,302.36,39,90,7.72,CA,1628073684
258,Arraial do Cabo,-22.9661,-42.0278,295.07,64,20,6.17,BR,1628068826
259,Iaçu,-12.7672,-40.2117,298.27,49,98,4.21,BR,1628067562
260,Lata,40.1629,-8.3327,294.22,90,51,1.87,PT,1628055250
261,Kulhudhuffushi,6.6221,73.07,300.94,79,87,5.29,MV,1628125326
262,Coahuayana Viejo,18.7333,-103.6833,305.86,59,71,3.15,MX,1628080387
263,Husavik,66.0449,-17.3389,286.1,79,88,1.33,IS,1628050013
264,Falun,60.6036,15.626,289.38,85,76,0.88,SE,1628044901
265,Port-Cartier,50.0334,-66.8654,290.27,52,0,4.15,CA,1628067679
266,Samus',56.7475,84.6992,289.82,98,100,1.0,RU,1628116138
267,Arrondissement de Saint-Denis,48.9167,2.3333,293.24,75,90,1.54,FR,1628051276
268,Chimbote,-9.0853,-78.5783,293.84,72,33,4.14,PE,1628076488
269,Airai,-8.9266,125.4092,286.19,76,19,1.69,TL,1628113912
270,Turinsk,58.0458,63.696,290.51,95,88,1.91,RU,1628120790
271,Sharlyk,52.9167,54.75,299.76,32,94,5.24,RU,1628124329
272,Majene,-3.5403,118.9707,298.15,87,98,4.69,ID,1628115059
273,Tabas,33.5959,56.9244,305.45,13,1,4.96,IR,1628126837
274,At-Bashi,41.1702,75.8106,287.03,69,86,0.55,KG,1628121362
275,Sri Aman,1.2376,111.4621,297.18,94,98,0.0,MY,1628116510
276,Glendive,47.1053,-104.7125,306.5,29,1,6.17,US,1628077324
277,Paka,4.6374,103.4368,298.14,94,40,0.0,MY,1628118185
278,Bairiki Village,1.3292,172.9752,299.15,83,40,0.51,KI,1628101741
279,Rawson,-43.3002,-65.1023,292.07,34,23,11.75,AR,1628076543
280,Suşehri,40.1644,38.0867,291.88,79,0,1.81,TR,1628044102
281,Grindavik,63.8424,-22.4338,287.35,88,75,1.54,IS,1628052572
282,Cherskiy,68.75,161.3,279.8,85,96,2.02,RU,1628091389
283,Iqaluit,63.7506,-68.5145,279.0,86,90,3.58,CA,1628063704
284,Aksu,41.1231,80.2644,297.42,42,61,2.27,CN,1628120299
285,Atambua,-9.1061,124.8925,293.79,88,26,2.38,ID,1628114050
286,Lethem,3.3803,-59.7968,302.34,66,23,1.1,GY,1628071055
287,Wilmington,34.2257,-77.9447,297.54,92,90,5.66,US,1628072707
288,Lagoa,39.05,-27.9833,295.83,89,0,5.87,PT,1628060118
289,Kruisfontein,-34.0033,24.7314,288.09,92,100,2.26,ZA,1628053865
290,Makakilo City,21.3469,-158.0858,301.33,58,1,4.63,US,1628093222
291,Quatre Cocos,-20.2078,57.7625,294.21,73,74,9.07,MU,1628044651
292,Pangnirtung,66.1451,-65.7125,284.15,82,90,5.66,CA,1628061584
293,Ust-Tsilma,65.441,52.1498,287.44,82,32,1.03,RU,1628033696
294,Gamba,-2.65,10.0,296.88,84,8,4.03,GA,1628054752
295,Almaznyy,48.0448,40.045,298.23,44,86,3.85,RU,1628042381
296,Rincon,32.296,-81.2354,300.85,73,75,4.12,US,1628073712
297,Norman Wells,65.282,-126.8329,286.17,58,75,3.6,CA,1628076858
298,Trincomalee,8.5711,81.2335,300.42,77,97,9.79,LK,1628123220
299,Bolondrón,22.7633,-81.4469,304.26,49,49,2.83,CU,1628074699
300,Udachny,66.4167,112.4,286.77,52,5,3.4,RU,1628105164
301,Kabanjahe,3.1001,98.4908,291.57,98,92,1.83,ID,1628119486
302,Faya,18.3851,42.4509,294.21,64,61,2.12,SA,1628045336
303,Bilibino,68.0546,166.4372,282.4,73,100,1.35,RU,1628090835
304,Bang Saphan,11.2126,99.5117,299.58,83,100,4.16,TH,1628118631
305,Beloha,-25.1667,45.05,290.65,77,0,5.19,MG,1628048129
306,Novy Urengoy,66.0833,76.6333,288.61,89,13,2.52,RU,1628114003
307,Na Wa,17.4897,104.1006,297.37,96,100,1.83,TH,1628117030
308,Thompson,55.7435,-97.8558,288.24,67,75,3.6,CA,1628073779
309,Vao,-22.6667,167.4833,293.92,74,72,6.71,NC,1628104903
310,Uyo,5.0333,7.9266,296.74,93,99,1.77,NG,1628054677
311,Benguela,-12.5763,13.4055,294.77,85,0,0.61,AO,1628054683
312,Achutupo,9.2,-77.9833,302.4,66,52,2.74,PA,1628074980
313,Várzea da Palma,-17.5981,-44.7308,300.57,26,32,3.6,BR,1628069027
314,Novichikha,52.204,81.3877,288.95,78,65,2.25,RU,1628118091
315,Fortuna,40.5982,-124.1573,295.33,73,1,1.34,US,1628083007
316,Sainte-Maxime,43.3,6.6333,295.17,73,85,5.99,FR,1628051203
317,Solnechnyy,50.7214,136.6319,284.91,98,100,1.43,RU,1628105137
318,Winslow,35.0242,-110.6974,307.57,19,1,0.45,US,1628080479
319,Esperance,-33.8667,121.9,280.06,86,0,3.2,AU,1628116892
320,College,64.8569,-147.8028,296.48,54,40,4.63,US,1628082160
321,Kissamos,35.4939,23.6569,304.97,38,0,1.12,GR,1628048162
322,Bo Phloi,14.3236,99.5161,301.1,81,89,2.12,TH,1628118386
323,Shakawe,-18.3667,21.85,289.25,31,0,2.61,BW,1628053115
324,Namatanai,-3.6667,152.4333,298.99,85,18,2.53,PG,1628107038
325,Kyshtovka,56.555,76.6271,286.71,95,100,2.95,RU,1628118134
326,Saint Anthony,45.0205,-93.218,303.66,40,1,0.89,US,1628074916
327,Derbent,42.0678,48.2899,301.17,41,28,2.53,RU,1628041382
328,Hay River,60.8156,-115.7999,287.14,62,75,3.09,CA,1628076414
329,Flic en Flac,-20.2742,57.3631,294.46,72,28,9.15,MU,1628044752
330,Monrovia,6.3005,-10.7969,300.02,80,77,4.09,LR,1628059075
331,Sistranda,63.7256,8.834,287.54,80,100,2.95,NO,1628045113
332,Margate,51.3813,1.3862,291.31,75,17,0.89,GB,1628050999
333,Hereford,52.0568,-2.7148,292.0,74,65,1.43,GB,1628051835
334,Piojó,10.7485,-75.1078,303.46,65,100,3.3,CO,1628074171
335,Ahmadpur East,29.1431,71.2598,310.18,36,0,3.57,PK,1628123864
336,Petropavlovsk-Kamchatskiy,53.0452,158.6483,279.48,87,0,3.0,RU,1628099335
337,Praia da Vitória,38.7333,-27.0667,300.29,65,40,5.47,PT,1628059940
338,Farafangana,-22.8167,47.8333,292.75,73,100,4.03,MG,1628047255
339,Hambantota,6.1241,81.1185,299.46,82,74,8.6,LK,1628123431
340,Ayní,39.3941,68.5377,292.47,59,14,1.49,TJ,1628123349
341,Rocha,-34.4833,-54.3333,288.17,74,83,2.6,UY,1628072881
342,Bagrāmī,34.4938,69.2743,298.14,18,20,4.63,AF,1628123770
343,Belaya Glina,46.07,40.86,294.39,80,46,2.07,RU,1628042536
344,Ballina,-28.8667,153.5667,282.13,66,0,4.63,AU,1628108797
345,Skellefteå,64.7507,20.9528,289.35,53,99,2.06,SE,1628041627
346,Prainha,-1.8,-53.48,306.25,42,28,1.04,BR,1628069923
347,Sirohi,24.8833,72.8667,299.33,80,86,6.66,IN,1628123886
348,Mareeba,-17.0,145.4333,290.55,69,12,1.32,AU,1628109727
349,Baraya,3.1533,-75.0531,303.78,39,35,2.01,CO,1628074733
350,Kachug,53.9606,105.8817,286.0,86,5,1.18,RU,1628111794
351,Kentau,43.5206,68.5094,301.5,26,3,11.74,KZ,1628122774
352,Ndjolé,-0.1783,10.7649,299.88,68,44,2.77,GA,1628054385
353,Mombetsu,44.3525,143.3525,294.09,95,42,2.46,JP,1628104669
354,Taoudenni,22.6783,-3.9836,316.16,7,5,3.06,ML,1628056110
355,Conceição do Araguaia,-8.2578,-49.2647,308.22,21,0,2.49,BR,1628069392
356,Takoradze,4.8845,-1.7554,297.72,89,36,4.84,GH,1628057012
357,Laguna,38.421,-121.4238,314.06,37,1,3.6,US,1628082640
358,Songjianghe,42.1859,127.479,291.87,89,94,2.07,CN,1628108808
359,Ambon City,-3.6954,128.1814,297.23,94,40,2.06,ID,1628112860
360,Saint-Pierre,-21.3393,55.4781,291.97,72,20,6.17,RE,1628045294
361,Novomykolayivka,47.9781,35.9102,295.29,54,49,1.47,UA,1628043387
362,San-Pédro,4.7485,-6.6363,297.59,86,100,4.73,CI,1628058194
363,Antalaha,-14.9003,50.2788,292.1,83,4,2.7,MG,1628046016
364,Kavaratti,10.5669,72.642,300.9,78,100,7.7,IN,1628125130
365,Durango,24.8333,-104.8333,292.94,68,100,1.73,MX,1628080125
366,Catuday,16.2923,119.8062,300.12,85,90,10.67,PH,1628113358
367,Narón,43.5167,-8.1528,293.62,92,44,2.24,ES,1628054721
368,Kilrush,52.6397,-9.4833,290.01,80,100,2.81,IE,1628053329
369,Corinth,37.9407,22.9573,306.83,44,19,0.86,GR,1628048029
370,Niimi,34.9833,133.4667,296.79,84,88,0.67,JP,1628108300
371,Palamós,41.8484,3.1291,293.92,69,53,2.02,ES,1628052260
372,Padang,-0.9492,100.3543,297.81,83,100,1.4,ID,1628119336
373,Touros,-5.1989,-35.4608,300.65,72,41,7.35,BR,1628065851
374,Konëvo,62.1215,39.3192,283.04,72,5,2.17,RU,1628038564
375,Libreville,0.3925,9.4537,299.16,89,20,3.6,GA,1628054657
376,Coyhaique,-45.5752,-72.0662,283.49,65,0,1.54,CL,1628078545
377,Muros,42.7762,-9.0603,294.43,85,52,1.62,ES,1628055052
378,Newport,51.5877,-2.9984,291.96,78,72,2.96,GB,1628052008
379,General Roca,-39.0333,-67.5833,292.37,22,4,8.5,AR,1628076580
380,Sergeevka,53.88,67.4158,290.87,62,54,2.02,KZ,1628121057
381,Eskişehir,39.7767,30.5206,301.08,36,0,2.57,TR,1628045972
382,Kidodi,-7.6036,37.0044,293.47,77,17,0.55,TZ,1628048641
383,Hisai-motomachi,34.6667,136.4667,301.04,91,0,1.28,JP,1628107616
384,Qinzhou,21.95,108.6167,301.62,79,68,1.97,CN,1628115567
385,Zhezkazgan,47.8043,67.7144,298.84,40,1,2.03,KZ,1628122258
386,Paamiut,61.994,-49.6678,280.16,92,100,0.59,GL,1628060019
387,Kumul,42.8,93.45,301.82,13,44,1.29,CN,1628116891
388,Kuybyshevo,47.8123,38.9073,295.63,45,42,3.9,RU,1628042697
389,Terrace Bay,48.7834,-87.1,292.43,71,100,3.06,CA,1628072786
390,Kasongo-Lunda,-6.4667,16.8167,297.91,27,2,0.92,CD,1628053400
391,Novosheshminsk,55.0651,51.2338,291.88,88,99,3.62,RU,1628038135
392,Claresholm,50.0333,-113.5852,301.14,50,85,4.63,CA,1628078903
393,Tautira,-17.7333,-149.15,300.16,78,22,6.96,PF,1628094091
394,Yabassi,4.457,9.9682,298.95,99,74,0.32,CM,1628054230
395,Lyubech,51.7026,30.6569,290.62,64,100,3.39,UA,1628043897
396,Evensk,61.95,159.2333,280.87,65,85,3.96,RU,1628096370
397,Inhambane,-23.865,35.3833,291.5,69,0,2.48,MZ,1628050333
398,Eyl,7.9803,49.8164,298.87,77,11,11.69,SO,1628044400
399,Russell,32.3502,-85.1999,304.15,61,75,2.06,US,1628074658
400,Departamento de Maldonado,-34.6667,-54.9167,283.81,72,91,2.24,UY,1628073040
401,Ahipara,-35.1667,173.1667,287.13,88,100,4.83,NZ,1628104735
402,Ternate,0.8,127.4,300.26,79,100,3.21,ID,1628112717
403,Novaya Igirma,57.1334,103.9112,287.93,72,87,0.52,RU,1628111406
404,Cheb,50.0796,12.3739,289.3,88,100,1.22,CZ,1628048633
405,Yuncheng,35.0231,110.9928,300.14,65,100,1.28,CN,1628113692
406,Vestmanna,62.1564,-7.1664,284.66,100,90,4.63,FO,1628049726
407,Cabo San Lucas,22.8909,-109.9124,305.32,63,90,3.13,MX,1628081521
408,Izsófalva,48.3,20.6667,293.89,60,92,0.5,HU,1628046988
409,Ossora,59.2353,163.0719,281.22,80,95,3.4,RU,1628096507
410,Pawai,24.2667,80.1667,297.29,89,100,4.56,IN,1628122190
411,Concepción del Uruguay,-32.4825,-58.2372,291.38,66,99,1.34,AR,1628073606
412,Xinmin,41.9908,122.8253,297.29,94,100,6.19,CN,1628109954
413,Kitimat,54.0524,-128.6534,293.36,95,93,1.81,CA,1628081623
414,La Reforma,25.0833,-108.05,307.31,53,66,3.14,MX,1628080874
415,Portel,-1.9356,-50.8211,305.95,46,4,1.08,BR,1628069295
416,Yeppoon,-23.1333,150.7333,281.03,56,0,4.6,AU,1628108961
417,Magomeni,-6.8,39.25,297.11,83,20,1.54,TZ,1628048042
418,Samarina,57.8878,27.8054,284.09,58,56,1.16,RU,1628042939
419,Fairbanks,64.8378,-147.7164,296.49,53,1,4.63,US,1628082151
420,Ise,34.4833,136.7,300.77,86,0,1.45,JP,1628107581
421,Chardara,41.2547,67.9692,300.71,28,75,4.86,KZ,1628123233
422,Cirò Marina,39.3732,17.126,302.51,55,0,4.66,IT,1628049243
423,Porto-Novo,6.4965,2.6036,300.05,83,100,3.9,BJ,1628055844
424,Khovd,48.0056,91.6419,292.96,36,15,4.13,MN,1628116473
425,Kirakira,-10.4544,161.9205,296.46,79,1,1.96,SB,1628105266
426,Forsytheganj,52.6333,29.7333,292.24,53,100,1.04,BY,1628043908
427,Jalu,29.0331,21.5482,309.86,16,0,8.69,LY,1628049375
428,Russellville,35.2784,-93.1338,303.7,49,75,2.06,US,1628076232
429,Santo Amaro da Imperatriz,-27.6881,-48.7786,294.05,81,95,1.09,BR,1628070868
430,Malanje,-9.5402,16.341,295.72,24,3,1.56,AO,1628053746
431,Hoquiam,46.9809,-123.8893,305.96,44,40,4.12,US,1628081953
432,Santa Isabel,-23.3156,-46.2214,292.99,68,64,4.33,BR,1628069862
433,Samarai,-10.6167,150.6667,298.69,81,90,6.58,PG,1628107978
434,Mbanza-Ngungu,-5.25,14.8667,299.04,38,1,1.85,CD,1628053777
435,Esso,55.9333,158.7,278.24,88,88,2.53,RU,1628098586
436,Broome,42.2506,-75.833,300.47,52,40,0.89,US,1628071166
437,Taltal,-25.4,-70.4833,290.13,63,13,2.19,CL,1628075866
438,Jaral del Progreso,20.3667,-101.0667,297.09,54,99,1.3,MX,1628079619
439,Nishihara,26.1842,127.7558,299.96,97,75,1.54,JP,1628110587
440,Fare,-16.7,-151.0167,299.3,74,52,6.88,PF,1628094456
441,Abonnema,4.7084,6.7931,298.19,87,98,2.63,NG,1628054974
442,Berlevåg,70.8578,29.0864,282.15,81,75,12.86,NO,1628033433
443,Nivala,63.9167,24.9667,285.2,75,1,2.01,FI,1628041131
444,Shūshtar,32.0455,48.8567,312.0,12,23,1.2,IR,1628128943
445,Mehrān,33.1222,46.1646,307.86,14,26,1.84,IR,1628129473
446,Kamina,-8.7386,24.9906,292.57,31,0,1.51,CD,1628051610
447,Port Blair,11.6667,92.75,300.6,83,100,8.81,IN,1628120219
448,Grand-Santi,4.25,-54.3833,301.42,81,15,1.07,GF,1628069690
449,Coquimbo,-29.9533,-71.3436,289.0,72,40,4.63,CL,1628076497
450,Hirara,24.8,125.2833,300.97,89,100,12.91,JP,1628111310
451,Pisco,-13.7,-76.2167,291.49,82,75,4.12,PE,1628076274
452,Arrondissement de Clermont,49.5,2.4167,292.99,81,100,1.66,FR,1628051142
453,San Jose,37.3394,-121.895,303.2,56,20,3.6,US,1628082890
454,Mnogovershinnyy,53.9353,139.9242,283.46,98,100,1.82,RU,1628103620
455,Marsh Harbour,26.5412,-77.0636,301.98,69,100,4.03,BS,1628073297
456,Alugan,12.2188,125.4808,299.68,81,100,3.23,PH,1628112320
457,Ayaviri,-14.8864,-70.5889,284.56,27,99,2.52,PE,1628075016
458,Yining,29.0361,114.5636,298.43,94,13,1.18,CN,1628113477
459,Rush,53.5223,-6.0931,290.68,82,100,6.1,IE,1628052304
460,Mattru,7.6244,-11.8332,296.72,94,71,1.55,SL,1628059224
461,Ottawa,45.4112,-75.6981,302.75,47,20,0.45,CA,1628070644
462,Mana,5.6592,-53.7767,301.46,71,50,3.98,GF,1628069439
463,Slave Lake,55.2834,-114.769,296.14,60,75,3.09,CA,1628077969
464,Puta,40.2967,49.6603,299.16,41,94,2.6,AZ,1628041304
465,Grand Gaube,-20.0064,57.6608,294.37,72,26,4.02,MU,1628044658
466,Adré,13.4667,22.2,299.59,64,100,3.46,TD,1628050600
467,Port Hawkesbury,45.6169,-61.3485,299.2,66,1,2.68,CA,1628067163
468,Ceres,37.5949,-120.9577,314.1,26,1,3.6,US,1628082633
469,Taitung City,22.7583,121.1444,300.1,89,100,5.84,TW,1628112488
470,Adrar,20.5022,-10.0711,309.53,15,30,5.01,MR,1628057763
471,Fergus Falls,46.283,-96.0776,298.55,60,1,6.17,US,1628075393
472,Quelimane,-17.8786,36.8883,294.12,83,0,0.0,MZ,1628049467
473,Araguaçu,-12.9306,-49.8264,306.83,19,89,1.42,BR,1628069882
474,San Antonio,29.4241,-98.4936,306.98,52,75,2.57,US,1628078157
475,Tornio,65.8481,24.1466,288.16,65,100,3.24,FI,1628040165
476,Calama,-22.4667,-68.9333,295.42,15,0,11.32,CL,1628075237
477,Santa Ana,33.7456,-117.8678,315.13,55,20,0.89,US,1628082348
478,Ust-Maya,60.4167,134.5333,285.53,78,20,0.48,RU,1628102935
479,Malayal,7.208,121.942,299.57,84,99,2.58,PH,1628113552
480,Anta,25.15,76.3,298.0,93,99,6.36,IN,1628123038
481,Douglas,41.3,-96.167,303.15,55,1,6.17,US,1628076187
482,Shimoda,34.6667,138.95,295.43,84,0,3.14,JP,1628107019
483,Tual,-5.6667,132.75,300.42,76,100,9.42,ID,1628111909
484,Londrina,-23.3103,-51.1628,294.96,37,0,4.63,BR,1628071047
485,Clevelândia,-26.3958,-52.4708,291.32,53,84,1.63,BR,1628071635
486,Elizabeth City,36.2946,-76.2511,296.49,90,100,5.94,US,1628072057
487,Vardø,70.3705,31.1107,282.14,87,75,15.95,NO,1628033858
488,Urdoma,61.7533,48.5442,285.97,77,90,1.9,RU,1628036510
489,Tahe,52.3333,124.7333,288.69,99,100,1.8,CN,1628107648
490,Ürümqi,43.801,87.6005,300.68,26,0,3.0,CN,1628118146
491,Maebaru-chūō,33.55,130.2,300.35,87,6,1.31,JP,1628109247
492,Dubbo,-32.25,148.6167,279.22,100,90,3.09,AU,1628110316
493,Vysokyy,49.8906,36.12,295.14,46,0,2.0,UA,1628042967
494,Isabela,6.7085,121.9711,299.32,89,92,1.66,PH,1628113582
495,Swift Current,50.2834,-107.8014,300.6,41,1,6.17,CA,1628077463
496,Zhaoyuan,37.3592,120.3964,297.05,97,94,3.52,CN,1628111154
497,Vostok,46.4856,135.8833,290.1,95,78,2.04,RU,1628106114
498,Coxim,-18.5067,-54.76,302.11,14,100,3.16,BR,1628071507
499,Maniitsoq,65.4167,-52.9,279.79,94,83,1.31,GL,1628058986
500,Mossamedes,-15.1961,12.1522,293.32,71,5,3.79,AO,1628055188
501,Tías,28.9611,-13.645,296.01,73,20,6.69,ES,1628057832
502,Boyolangu,-8.1181,111.8935,296.29,94,73,1.25,ID,1628117095
503,Emerald,-23.5333,148.1667,282.58,46,0,3.09,AU,1628109611
504,Huron,41.1501,-82.5499,300.85,51,0,2.74,US,1628072937
505,Jalalpur Pirwala,29.5069,71.2192,309.17,38,1,1.98,PK,1628123837
506,Les Cayes,18.2,-73.75,303.14,60,96,5.42,HT,1628073246
507,Baghdad,33.3406,44.4009,312.1,19,0,4.63,IQ,1628043429
508,Constitución,-35.3333,-72.4167,286.89,79,58,5.31,CL,1628077311
509,Acaraú,-2.8856,-40.12,301.12,66,87,6.61,BR,1628066797
510,Nyurba,63.2842,118.3319,287.43,65,31,2.48,RU,1628105586
511,Cayenne,4.9333,-52.3333,302.09,77,0,1.34,GF,1628069147
512,Ugoofaaru,5.6667,73.0,301.17,78,99,4.77,MV,1628125414
513,Chapais,49.7834,-74.8492,294.03,29,0,2.92,CA,1628069647
514,Mapua,-41.25,173.1,282.04,93,100,1.74,NZ,1628105474
515,Ouésso,1.6136,16.0517,298.59,53,20,0.35,CG,1628052983
516,Kuntaur,13.6667,-14.8833,300.85,76,100,2.92,GM,1628059486
517,Port Hedland,-20.3167,118.5667,294.18,18,75,4.63,AU,1628116441
518,Nānākuli,21.3906,-158.1547,302.12,61,1,4.63,US,1628093235
519,Pingliang,35.5392,106.6861,292.44,51,94,1.75,CN,1628114666
520,Mpika,-11.8343,31.4529,285.62,48,2,1.86,ZM,1628050295
521,Ape,57.5393,26.6929,285.21,64,95,1.71,LV,1628043317
522,Qaqortoq,60.7167,-46.0333,283.43,90,100,1.55,GL,1628059680
523,Lac du Bonnet,50.2536,-96.0612,297.92,42,100,1.29,CA,1628074648
524,Guanambi,-14.2233,-42.7814,299.1,33,98,5.74,BR,1628068292
525,Prince Rupert,54.3161,-130.3201,291.2,82,90,6.69,CA,1628081958
526,Rāyadrug,14.7,76.8667,297.31,74,89,8.86,IN,1628123793
527,Puksoozero,62.5903,40.6066,282.27,77,4,2.18,RU,1628038038
528,Korla,41.7597,86.1469,301.96,24,95,2.68,CN,1628118796
529,Macia,-25.0269,33.0989,288.81,75,0,3.51,MZ,1628050984
530,Vágur,61.4732,-6.8119,285.3,95,100,4.03,FO,1628049940
531,Pudozh,61.8099,36.5345,287.88,61,92,2.97,RU,1628039372
532,Bud,39.447,-86.1758,301.3,42,4,2.62,US,1628074041
533,Polyarny,69.1989,33.4478,281.41,93,100,12.64,RU,1628034952
534,Yagodnoye,62.55,149.6667,277.92,95,100,1.38,RU,1628098401
535,Takaka,-40.85,172.8,282.02,94,100,2.1,NZ,1628105494
536,Mount Gambier,-37.8333,140.7667,283.1,93,90,4.12,AU,1628112807
537,Peniche,39.3558,-9.3811,295.86,87,61,5.72,PT,1628055611
538,Kanigoro,-8.13,112.219,294.9,96,43,1.73,ID,1628117018
539,Cabedelo,-6.9811,-34.8339,297.52,79,33,5.92,BR,1628065833
540,Marmora,44.4583,7.094,286.41,92,87,3.07,IT,1628050912
541,Salé,34.0389,-6.8166,297.39,83,20,2.06,MA,1628055649
542,Houston,29.7633,-95.3633,307.35,72,75,0.89,US,1628077371
543,Norway,45.7869,-87.9037,303.69,46,20,3.6,US,1628073513
544,Yar-Sale,66.8333,70.8333,288.28,74,68,0.22,RU,1628114864
545,Port Macquarie,-31.4333,152.9167,283.13,62,0,3.98,AU,1628109202
546,Santiago del Estero,-27.7951,-64.2615,297.62,22,13,3.63,AR,1628074592
547,Malakal,9.5334,31.6605,296.26,92,47,2.35,SS,1628048638
548,Bubaque,11.2833,-15.8333,299.99,80,95,5.4,GW,1628059902
549,Ust-Kuyga,70.0167,135.6,282.43,51,0,3.98,RU,1628096045
550,Sabang,5.8933,95.3214,301.44,76,100,10.87,ID,1628120040
551,Pishin,30.5803,66.9961,300.11,24,32,1.9,PK,1628124741
